[

    {
        "id": "seoul-1",
        "name": "강동구청 반려동물팀",
        "region": "서울",
        "address": "서울특별시 강동구 성내로 25 (성내동, 강동구청) 강동구청",
        "phone": "02-3425-6015",
        "category": "보호소",
        "lat": 37.530160973856,
        "lng": 127.12379233466
    },
    {
        "id": "seoul-2",
        "name": "강동리본센터(reborn)",
        "region": "서울",
        "address": "서울특별시 강동구 양재대로81길 73 (성내동)",
        "phone": "070-4163-7350",
        "category": "보호소",
        "lat": 37.523867363563,
        "lng": 127.130266066129
    }
    ,
    {
        "id": "seoul-3",
        "name": "내품에센터",
        "region": "서울",
        "address": "서울특별시 서대문구 모래내로 333 (홍은동)",
        "phone": "02-330-3821",
        "category": "보호소",
        "lat": 37.580408969971,
        "lng": 126.933766623724
    }
    ,
    {
        "id": "seoul-4",
        "name": "노원반려동물문화센터",
        "region": "서울",
        "address": "서울특별시 노원구 수락산로 258 (상계동, 호성빌딩) 1층",
        "phone": "070-4163-7350",
        "category": "보호소",
        "lat": 37.6713489809143,
        "lng": 127.049956478712
    }
    ,
    {
        "id": "seoul-5",
        "name": "동대문구청",
        "region": "서울",
        "address": "서울특별시 동대문구 천호대로 145 (용두동)",
        "phone": "02-2127-4741",
        "category": "보호소",
        "lat": 37.5743917161622,
        "lng": 127.039896580148
    }
    ,
    {
        "id": "seoul-6",
        "name": "서울동물복지지원센터",
        "region": "서울",
        "address": "서울특별시 마포구 매봉산로 31 (상암동) 지하1층",
        "phone": "02-2124-2839",
        "category": "보호소",
        "lat": 37.5757269662412,
        "lng": 126.889972593033
    }
    ,
    {
        "id": "seoul-7",
        "name": "서초동물사랑센터",
        "region": "서울",
        "address": "서울특별시 서초구 양재천로19길 22 (양재동, 숨빌딩) 서초동물사랑센터",
        "phone": "02-6956-7980",
        "category": "보호소",
        "lat": 37.4763643373826,
        "lng": 127.038146339543
    }
    ,
    {
        "id": "seoul-8",
        "name": "성동구청",
        "region": "서울",
        "address": "서울특별시 성동구 고산자로 270 (행당동) 10층 여성가족과",
        "phone": "02-2286-6853",
        "category": "보호소",
        "lat": 37.5634225092469,
        "lng": 127.036964999975
    }
    ,
    {
        "id": "seoul-9",
        "name": "노원반려동물문화센터",
        "region": "서울",
        "address": "서울특별시 노원구 수락산로 258 (상계동, 호성빌딩) 1층",
        "phone": "070-4163-7350",
        "category": "보호소",
        "lat": 37.6713489809143,
        "lng": 127.049956478712
    }
    ,
    {
        "id": "seoul-10",
        "name": "우리동물병원생명사회",
        "region": "서울",
        "address": "서울특별시 마포구 월드컵북로12길 22 (성산동) 우리동물병원생명사회적협동조합",
        "phone": "02-335-3333",
        "category": "보호소",
        "lat": 37.5620506346922,
        "lng": 126.915776770909
    }
    ,
    {
        "id": "gyeong-1",
        "name": "한국동물구조관리협회",
        "region": "경기",
        "address": "경기도 양주시 남면 감악산로 63-37",
        "phone": "031-867-9119",
        "category": "보호소",
        "lat": 37.8701154520745,
        "lng": 126.983544528402
    }
    ,
    {
        "id": "gyeong-2",
        "name": "가평군유기동물보호소",
        "region": "경기",
        "address": "경기도 가평군 가평읍 아랫마장길 59 (가평읍, 농업기술센터) 가평 유기동물 보호소",
        "phone": "031-580-4794",
        "category": "보호소",
        "lat": 37.8460044778178,
        "lng": 127.498685641748
    }
    ,
    {
        "id": "gyeong-3",
        "name": "고양시동물보호센터",
        "region": "경기",
        "address": "경기도 고양시 덕양구 고양대로 1695 (원흥동, 고양시 농업기술센터) 고양시동물보호센터",
        "phone": "031-962-3232",
        "category": "보호소",
        "lat": 37.649777903709,
        "lng": 126.870086007514
    }
    ,
    {
        "id": "gyeong-4",
        "name": "한국동물구조관리협회",
        "region": "경기",
        "address": "경기도 양주시 남면 감악산로 63-37",
        "phone": "031-867-9119",
        "category": "보호소",
        "lat": 37.8701154520745,
        "lng": 126.983544528402
    }
    ,
    {
        "id": "gyeong-5",
        "name": "광명반함센터",
        "region": "경기",
        "address": "경기도 광명시 오리로854번길 10 (철산동) 지하1층",
        "phone": "02-2680-5001",
        "category": "보호소",
        "lat": 37.4743690340131,
        "lng": 126.868466672165
    }
    ,
    {
        "id": "gyeong-6",
        "name": "구리반려동물문화센터",
        "region": "경기",
        "address": "경기도 구리시 동구릉로136번길 57 (인창동) 2층",
        "phone": "031-566-0059",
        "category": "보호소",
        "lat": 37.6131388676785,
        "lng": 127.140918284674
    }
    ,
    {
        "id": "gyeong-7",
        "name": "남양동물보호센터",
        "region": "경기",
        "address": "경기도 화성시 남양읍 화성로 1483-27 (남양읍)",
        "phone": "031-356-2281",
        "category": "보호소",
        "lat": 37.2249499364242,
        "lng": 126.843424243234
    }
    ,
    {
        "id": "gyeong-8",
        "name": "남양주시동물보호센터",
        "region": "경기",
        "address": "경기도 남양주시 경강로163번길 32-27 (이패동)",
        "phone": "031-579-3604",
        "category": "보호소",
        "lat": 37.6087868152795,
        "lng": 127.191523402258
    }
    ,
    {
        "id": "gyeong-9",
        "name": "수원시 동물보호센터",
        "region": "경기",
        "address": "경기도 수원시 영통구 광교호수로 234 (하동, 수원시 동물보호센터) 하동 40-10",
        "phone": "031-228-3557",
        "category": "보호소",
        "lat": 37.285018306654,
        "lng": 127.078687874879
    }
    ,
    {
        "id": "gyeong-10",
        "name": "시흥동물누리보호센터",
        "region": "경기",
        "address": "경기도 시흥시 뒷방울길 218 (정왕동)",
        "phone": "031-310-6945",
        "category": "보호소",
        "lat": 37.3739688541248,
        "lng": 126.74254229678
    }
    ,
    {
        "id": "gyeong-11",
        "name": "안성시 동물보호센터",
        "region": "경기",
        "address": "경기도 안성시 중앙로 431-1 (봉남동)",
        "phone": "031-673-5491",
        "category": "보호소",
        "lat": 37.0065991701318,
        "lng": 127.274798882943
    }
    ,
    {
        "id": "gyeong-12",
        "name": "양평군유기동물보호소",
        "region": "경기",
        "address": "경기도 양평군 양평읍 농업기술센터길 59-1",
        "phone": "031-770-2337",
        "category": "보호소",
        "lat": 37.5109067193492,
        "lng": 127.513312935042
    }
    ,
    {
        "id": "gyeong-13",
        "name": "오산 유기동물보호소",
        "region": "경기",
        "address": "경기도 오산시 성호대로 36 (오산동)",
        "phone": "031-372-9325",
        "category": "보호소",
        "lat": 37.1490859346318,
        "lng": 127.065203254744
    }
    ,
    {
        "id": "gyeong-14",
        "name": "용인시 유기동물보호소",
        "region": "경기",
        "address": "경기도 용인시 처인구 중부대로 1074-1 (삼가동) 용인시 동물보호센터",
        "phone": "031-6193-3463",
        "category": "보호소",
        "lat": 37.2433128077112,
        "lng": 127.159339277192
    }
    ,
    {
        "id": "gyeong-15",
        "name": "위더스 동물보호센터",
        "region": "경기",
        "address": "경기도 여주시 세종대왕면 능서공원길 34 (능서면)",
        "phone": "031-882-4381",
        "category": "보호소",
        "lat": 37.2972347527895,
        "lng": 127.575939870309
    }
    ,
    {
        "id": "gyeong-16",
        "name": "평택시유기동물보호소",
        "region": "경기",
        "address": "경기도 평택시 진위면 야막길 108-86 (진위면)",
        "phone": "031-8024-3808",
        "category": "보호소",
        "lat": 37.130629704591,
        "lng": 127.055420952807
    }
    ,
    {
        "id": "gyeong-17",
        "name": "하남동물보호센터",
        "region": "경기",
        "address": "경기도 하남시 미사동로40번길 75-91 (미사동)",
        "phone": "031-790-5853",
        "category": "보호소",
        "lat": 37.5687555444238,
        "lng": 127.207596632505
    }
    
    ,
    {
        "id": "incheon-1",
        "name": "인천광역시수의사회",
        "region": "인천",
        "address": "인천광역시 계양구 다남로165번길 56 (다남동, 유기동물보호소)",
        "phone": "032-515-7567",
        "category": "보호소",
        "lat": 37.5662390792896,
        "lng": 126.719642460595
    }
    ,
    {
        "id": "sejong-1",
        "name": "세종유기동물보호센터",
        "region": "세종",
        "address": "세종특별자치시 전동면 미륵당1길 188 (전동면)",
        "phone": "010-4435-3720",
        "category": "보호소",
        "lat": 36.6730329753381,
        "lng": 127.221377295742
    }
    ,
    {
        "id": "daejeon-1",
        "name": "대전동물보호센터",
        "region": "대전",
        "address": "대전광역시 유성구 금남구즉로 1234 (금고동) 대전광역시 동물보호센터",
        "phone": "042-270-7239",
        "category": "보호소",
        "lat": 36.4587718562076,
        "lng": 127.382830214701
    }
    ,
    {
        "id": "ulsan-1",
        "name": "울산유기동물보호센터",
        "region": "울산",
        "address": "울산광역시 울주군 온양읍 화산발리로 543 (온양읍)",
        "phone": "052-238-6113",
        "category": "보호소",
        "lat": 35.3911332598169,
        "lng": 129.285828232017
    }
    ,
    {
        "id": "gangwon-1",
        "name": "강릉시 동물사랑센터",
        "region": "강원도",
        "address": "강원도 강릉시 성산면 내맬길 172",
        "phone": "033-641-7515",
        "category": "보호소",
        "lat": 37.6989176119537,
        "lng": 128.829265414089
    }
    ,
    {
        "id": "gangwon-2",
        "name": "동해시동물보호센터",
        "region": "강원도",
        "address": "강원도 동해시 대동로 159-13 (송정동, 동해시유기동물보호소)",
        "phone": "033-522-2990",
        "category": "보호소",
        "lat": 37.4850896811024,
        "lng": 129.119005942929
    }
    ,
    {
        "id": "gangwon-3",
        "name": "삼척시동물보호센터",
        "region": "강원도",
        "address": "강원도 삼척시 미로면 동안로 86-45",
        "phone": "033-571-2610",
        "category": "보호소",
        "lat": 37.4287919493851,
        "lng": 129.110189621367
    }
    ,
    {
        "id": "gangwon-4",
        "name": "속초시유기동물보호소",
        "region": "강원도",
        "address": "강원도 속초시 하도문길 103 (대포동)",
        "phone": "033-636-2519",
        "category": "보호소",
        "lat": 38.169210483219,
        "lng": 128.598848487269
    }
    
    ,
    {
        "id": "chungbuk-1",
        "name": "괴산증평동물보호센터",
        "region": "충청북도",
        "address": "충청북도 증평군 도안면 입장길 239 (도안면)",
        "phone": "010-3169-1151",
        "category": "보호소",
        "lat": 36.8469668986887,
        "lng": 127.60823511265
    }
    ,
    {
        "id": "chungbuk-2",
        "name": "단양군동물보호센터",
        "region": "충청북도",
        "address": "충청북도 단양군 매포읍 우덕리 828번지",
        "phone": "043-420-2742",
        "category": "보호소",
        "lat": 37.0130165473933,
        "lng": 128.313708606594
    }
    ,
    {
        "id": "chungbuk-3",
        "name": "반려동물보호센터",
        "region": "충청북도",
        "address": "충청북도 청주시 흥덕구 강내면 서부로 411-55 (강내면)",
        "phone": "043-201-2298",
        "category": "보호소",
        "lat": 36.5903398305205,
        "lng": 127.365432257257
    }
    ,
    {
        "id": "chungbuk-4",
        "name": "제천시 동물보호센터",
        "region": "충청북도",
        "address": "충청북도 제천시 금성면 적성로8길 51 (금성면)",
        "phone": "043-647-0059",
        "category": "보호소",
        "lat": 37.0845657352092,
        "lng": 128.215049889637
    }
    ,
    {
        "id": "chungbuk-5",
        "name": "충주시동물보호센터",
        "region": "충청북도",
        "address": "충청북도 충주시 중앙탑면 일곱실길 70 (중앙탑면)",
        "phone": "043-851-3168",
        "category": "보호소",
        "lat": 37.0083620808657,
        "lng": 127.849752973625
    }
    ,
    {
        "id": "chungnam-1",
        "name": "공주시동물보호센터",
        "region": "충청남도",
        "address": "충청남도 공주시 우성면 내산목천길 52-15",
        "phone": "041-840-3495",
        "category": "보호소",
        "lat": 36.4923024508166,
        "lng": 127.100107722125
    }
    ,
    {
        "id": "chungnam-2",
        "name": "남부여동물보호소",
        "region": "충청남도",
        "address": "충청남도 부여군 임천면 위덕로47번길 36-12 (점리)",
        "phone": "041-837-8277",
        "category": "보호소",
        "lat": 36.2158884829716,
        "lng": 126.890921789063
    }
    ,
    {
        "id": "chungnam-3",
        "name": "논산시 동물보호센터",
        "region": "충청남도",
        "address": "충청남도 논산시 계백로665번길 100 (등화동) 논산시 동물보호센터",
        "phone": "041-746-8470",
        "category": "보호소",
        "lat": 36.1856614487652,
        "lng": 127.058576430579
    }
    ,
    {
        "id": "chungnam-4",
        "name": "당진시동물보호소",
        "region": "충청남도",
        "address": "충청남도 당진시 고대면 연동로 30-6 (고대면)",
        "phone": "041-356-8210",
        "category": "보호소",
        "lat": 36.9340405332694,
        "lng": 126.596263977381
    }
    ,
    {
        "id": "chungnam-5",
        "name": "보령시유기동물보호소",
        "region": "충청남도",
        "address": "충청남도 보령시 녹문3길 7 (내항동)",
        "phone": "010-5427-7210",
        "category": "보호소",
        "lat": 36.3325789728546,
        "lng": 126.58822381758
    }
    ,
    {
        "id": "gwangju-1",
        "name": "광주 동물보호소",
        "region": "광주",
        "address": "광주광역시 북구 본촌마을길 27 (본촌동) 광주광역시 동물보호소",
        "phone": "062-571-2808",
        "category": "보호소",
        "lat": 35.2225551714642,
        "lng": 126.88177151997
    }
    ,
    {
        "id": "jeonbuk-1",
        "name": "군산유기동물보호센터",
        "region": "전라북도",
        "address": "전라북도 군산시 대야면 보덕안정길 108-20",
        "phone": "063-451-2975",
        "category": "보호소",
        "lat": 35.9608151297534,
        "lng": 126.816308073264
    }
    ,
    {
        "id": "jeonbuk-2",
        "name": "부안군 동물보호센터",
        "region": "전라북도",
        "address": "전북특별자치도 부안군 주산면 주산로 369 부안군 동물보호센터",
        "phone": "063-580-4445",
        "category": "보호소",
        "lat": 35.6657688367696,
        "lng": 126.735827429552
    }
    ,
    {
        "id": "jeonbuk-3",
        "name": "순창유기동물보호소",
        "region": "전라북도",
        "address": "전라북도 순창군 구림면 삭골길 56-1",
        "phone": "063-650-5638",
        "category": "보호소",
        "lat": 35.4370692109471,
        "lng": 127.041881009015
    }
    ,
    {
        "id": "jeonbuk-4",
        "name": "완주군유기동물보호소",
        "region": "전라북도",
        "address": "전라북도 완주군 용진읍 순지2길 187-6",
        "phone": "063-290-3248",
        "category": "보호소",
        "lat": 35.9418974216293,
        "lng": 127.19032330712
    }
    ,
    {
        "id": "jeonbuk-5",
        "name": "익산유기동물보호소",
        "region": "전라북도",
        "address": "전북특별자치도 익산시 삼기면 황금로 342-17",
        "phone": "063-855-1214",
        "category": "보호소",
        "lat": 36.0253110093003,
        "lng": 126.966521391388
    }
    ,
    {
        "id": "jeonnam-1",
        "name": "강진군 유기견 보호소",
        "region": "전라남도",
        "address": "전라남도 강진군 강진읍 초지길 109-62 (강진읍, 강진군상하수도사업소)",
        "phone": "061-430-3237",
        "category": "보호소",
        "lat": 34.6248114619565,
        "lng": 126.777392278753
    }
    ,
    {
        "id": "jeonnam-2",
        "name": "고흥군임시보호센터",
        "region": "전라남도",
        "address": "전라남도 고흥군 포두면 우주로 607 (포두면, 소매점)",
        "phone": "010-3625-1447",
        "category": "보호소",
        "lat": 34.5705457867544,
        "lng": 127.341010074017
    }
    ,
    {
        "id": "jeonnam-3",
        "name": "곡성군동물보호소",
        "region": "전라남도",
        "address": "전라남도 곡성군 곡성읍 구원리 888",
        "phone": "061-360-8392",
        "category": "보호소",
        "lat": 35.2470868779344,
        "lng": 127.258791357254
    }
    ,
    {
        "id": "jeonnam-4",
        "name": "광양시 임시보호소",
        "region": "전라남도",
        "address": "전라남도 광양시 봉강면 인덕로 1169-20 (봉강면) 지곡리 864-24",
        "phone": "061-797-3386",
        "category": "보호소",
        "lat": 34.9878921870939,
        "lng": 127.576519850225
    }
    ,
    {
        "id": "gyeongsangbuk-1",
        "name": "경산시유기동물보호소",
        "region": "경상북도",
        "address": "경상북도 경산시 용성면 사양지길 95 (용성면)",
        "phone": "010-5847-0956",
        "category": "보호소",
        "lat": 35.7778814877832,
        "lng": 128.885555062966
    }
    ,
    {
        "id": "gyeongsangbuk-2",
        "name": "경주동물사랑보호센터",
        "region": "경상북도",
        "address": "경상북도 경주시 천북면 천북로 8-4 경주시 동물사랑보호센터",
        "phone": "010-8889-2883",
        "category": "보호소",
        "lat": 35.892961072128,
        "lng": 129.238426249139
    }
    ,
    {
        "id": "gyeongsangbuk-3",
        "name": "고령군 유기견 보호소",
        "region": "경상북도",
        "address": "경상북도 고령군 운수면 하법길 37 (운수면)",
        "phone": "010-4419-4135",
        "category": "보호소",
        "lat": 35.7719276478944,
        "lng": 128.300362104437
    }
    ,
    {
        "id": "gyeongsangbuk-4",
        "name": "김천시 동물보호센터",
        "region": "경상북도",
        "address": "경상북도 김천시 구성면 남김천대로 3296-22 하강리 44(김천시 유기동물보호센터)",
        "phone": "054-421-2547",
        "category": "보호소",
        "lat": 36.0779157317292,
        "lng": 128.100322201139
    }
    ,
    {
        "id": "gyeongsangbuk-5",
        "name": "구미시 동물보호센터",
        "region": "경상북도",
        "address": "경상북도 구미시 옥성면 선상동로 1358 애니멀 케어 센터",
        "phone": "054-471-5718",
        "category": "보호소",
        "lat": 36.3400971667635,
        "lng": 128.278755922896
    }
    ,
    {
        "id": "gyeongsangnam-1",
        "name": "거제시유기동물보호소",
        "region": "경상남도",
        "address": "경상남도 거제시 사등면 두동로1길 109 (사등면, 한국자원재생공사폐비닐적재장) 거제시유기동물보호소",
        "phone": "055-639-6368",
        "category": "보호소",
        "lat": 34.8837696084524,
        "lng": 128.573671691244
    }
    ,
    {
        "id": "gyeongsangnam-2",
        "name": "거창유기동물보호센터",
        "region": "경상남도",
        "address": "경상남도 거창군 남상면 수남로 1934-12",
        "phone": "055-945-6500",
        "category": "보호소",
        "lat": 35.6516636334543,
        "lng": 127.912919416435
    }
    ,
    {
        "id": "gyeongsangnam-3",
        "name": "남해군동물보호센터",
        "region": "경상남도",
        "address": "경상남도 남해군 이동면 남해대로 2449 동물보호센터",
        "phone": "055-860-3974",
        "category": "보호소",
        "lat": 34.8176167421765,
        "lng": 127.923189482876
    }
    ,
    {
        "id": "gyeongsangnam-4",
        "name": "진주시동물보호센터",
        "region": "경상남도",
        "address": "경상남도 진주시 집현면 신당길207번길 22 (집현면, 지역농업개발시설)",
        "phone": "055-749-6134",
        "category": "보호소",
        "lat": 35.2270862171483,
        "lng": 128.121872004671
    }
    ,
    {
        "id": "gyeongsangnam-5",
        "name": "마산유기동물보호소",
        "region": "경상남도",
        "address": "경상남도 창원시 성산구 공단로474번길 117 (상복동) 동물보호센터",
        "phone": "055-225-5701",
        "category": "보호소",
        "lat": 35.1973355970266,
        "lng": 128.663355988023
    }
    ,
    {
        "id": "jeju-1",
        "name": "제주동물보호센터",
        "region": "제주도",
        "address": "제주특별자치도 제주시 첨단동길 184-14 (용강동)",
        "phone": "064-710-4067",
        "category": "보호소",
        "lat": 33.4555329048921,
        "lng": 126.589213080931
    }
    ,
    {
        "id": "busan-1",
        "name": "부산동물보호센터",
        "region": "부산",
        "address": "부산광역시 강서구 맥도강변길 752-15 (대저2동)",
        "phone": "051-832-7119",
        "category": "보호소",
        "lat": 35.1514432819343,
        "lng": 128.939632892873
    }
    ,
    {
        "id": "busan-2",
        "name": "(사)동부동물보호협회",
        "region": "부산",
        "address": "부산광역시 해운대구 송정2로13번길 46 (송정동)",
        "phone": "051-701-7599",
        "category": "보호소",
        "lat": 35.1948089522106,
        "lng": 129.206317600008
    }
    ,
    {
        "id": "busan-3",
        "name": "부산동물보호센터",
        "region": "부산",
        "address": "부산광역시 강서구 맥도강변길 752-15 (대저2동)",
        "phone": "051-832-7119",
        "category": "보호소",
        "lat": 35.1514432819343,
        "lng": 128.939632892873
    }
    ,
    {
        "id": "busan-4",
        "name": "동물보호관리협회",
        "region": "부산",
        "address": "부산광역시 강서구 가락대로1283번길 25-2 (봉림동)",
        "phone": "010-3344-6208",
        "category": "보호소",
        "lat": 35.1789240645319,
        "lng": 128.899759463775
    }
    ,
    {
        "id": "daegu-1",
        "name": "대구유기동물보호센터",
        "region": "대구",
        "address": "대구광역시 동구 금강로 151-13 (금강동)",
        "phone": "053-964-6258",
        "category": "보호소",
        "lat": 35.8638745449304,
        "lng": 128.735959090291
    }


    

    
    
    
    
    
    
    
    
    
]